{"type": "FeatureCollection", "features": [{"geometry": {"type": "Point", "coordinates": [-123.13784476, 49.2867852829887]}, "type": "Feature", "id": null, "properties": {"name": "Lord Roberts Elem."}}, {"geometry": {"type": "Point", "coordinates": [-123.12980601, 49.2830917109887]}, "type": "Feature", "id": null, "properties": {"name": "Lord Roberts Annex"}}, {"geometry": {"type": "Point", "coordinates": [-123.10656921, 49.2315664869888]}, "type": "Feature", "id": null, "properties": {"name": "Van Horne Elem."}}, {"geometry": {"type": "Point", "coordinates": [-123.10596494, 49.2472287069888]}, "type": "Feature", "id": null, "properties": {"name": "Wolfe Elem."}}, {"geometry": {"type": "Point", "coordinates": [-123.12100426, 49.2269069359888]}, "type": "Feature", "id": null, "properties": {"name": "Jamieson Elem."}}, {"geometry": {"type": "Point", "coordinates": [-123.16358941, 49.2626547729887]}, "type": "Feature", "id": null, "properties": {"name": "Kitsilano Sec."}}, {"geometry": {"type": "Point", "coordinates": [-123.07309884, 49.2371162729888]}, "type": "Feature", "id": null, "properties": {"name": "Tecumseh Annex"}}, {"geometry": {"type": "Point", "coordinates": [-123.07246012, 49.2453207749888]}, "type": "Feature", "id": null, "properties": {"name": "Lord Selkirk Annex"}}, {"geometry": {"type": "Point", "coordinates": [-123.07382164, 49.2535693549887]}, "type": "Feature", "id": null, "properties": {"name": "Tyee Elem."}}, {"geometry": {"type": "Point", "coordinates": [-123.20479699, 49.2678564229887]}, "type": "Feature", "id": null, "properties": {"name": "Queen Mary Elem."}}, {"geometry": {"type": "Point", "coordinates": [-123.14935629, 49.2722458789887]}, "type": "Feature", "id": null, "properties": {"name": "Henry Hudson Elem."}}, {"geometry": {"type": "Point", "coordinates": [-123.06163307, 49.2476120359887]}, "type": "Feature", "id": null, "properties": {"name": "Gladstone Sec."}}, {"geometry": {"type": "Point", "coordinates": [-123.0743697, 49.2661931699887]}, "type": "Feature", "id": null, "properties": {"name": "Grandview Elem."}}, {"geometry": {"type": "Point", "coordinates": [-123.173557238565, 49.256587422262]}, "type": "Feature", "id": null, "properties": {"name": "Carnarvon Elem."}}, {"geometry": {"type": "Point", "coordinates": [-123.17345921, 49.2361682459888]}, "type": "Feature", "id": null, "properties": {"name": "Kerrisdale Elem."}}, {"geometry": {"type": "Point", "coordinates": [-123.13644517, 49.2898241529887]}, "type": "Feature", "id": null, "properties": {"name": "King George Sec."}}, {"geometry": {"type": "Point", "coordinates": [-123.14935629, 49.2722458789887]}, "type": "Feature", "id": null, "properties": {"name": "Henry Hudson Elem."}}, {"geometry": {"type": "Point", "coordinates": [-123.13784476, 49.2867852829887]}, "type": "Feature", "id": null, "properties": {"name": "Lord Roberts Elem."}}, {"geometry": {"type": "Point", "coordinates": [-123.12100426, 49.2269069359888]}, "type": "Feature", "id": null, "properties": {"name": "Jamieson Elem."}}, {"geometry": {"type": "Point", "coordinates": [-123.13784476, 49.2867852829887]}, "type": "Feature", "id": null, "properties": {"name": "Lord Roberts Elem."}}, {"geometry": {"type": "Point", "coordinates": [-123.084950188923, 49.2419442301333]}, "type": "Feature", "id": null, "properties": {"name": "McBride Annex"}}, {"geometry": {"type": "Point", "coordinates": [-123.10879442, 49.2172677929888]}, "type": "Feature", "id": null, "properties": {"name": "Sexsmith Elem."}}, {"geometry": {"type": "Point", "coordinates": [-123.12504721, 49.2177625349888]}, "type": "Feature", "id": null, "properties": {"name": "Laurier Elem."}}, {"geometry": {"type": "Point", "coordinates": [-123.06069106, 49.2784390939887]}, "type": "Feature", "id": null, "properties": {"name": "Templeton Sec."}}, {"geometry": {"type": "Point", "coordinates": [-123.05745595, 49.2367322269888]}, "type": "Feature", "id": null, "properties": {"name": "Cunningham Elem."}}, {"geometry": {"type": "Point", "coordinates": [-123.07309884, 49.2371162729888]}, "type": "Feature", "id": null, "properties": {"name": "Tecumseh Annex"}}, {"geometry": {"type": "Point", "coordinates": [-123.02567271, 49.2420690879888]}, "type": "Feature", "id": null, "properties": {"name": "Bruce Elem."}}, {"geometry": {"type": "Point", "coordinates": [-123.03205805, 49.2514577749887]}, "type": "Feature", "id": null, "properties": {"name": "Renfrew Elem."}}, {"geometry": {"type": "Point", "coordinates": [-123.05578593, 49.2278372259888]}, "type": "Feature", "id": null, "properties": {"name": "Waverley Annex"}}, {"geometry": {"type": "Point", "coordinates": [-123.05578593, 49.2278372259888]}, "type": "Feature", "id": null, "properties": {"name": "Waverley Elem."}}, {"geometry": {"type": "Point", "coordinates": [-123.08434542, 49.2161092309888]}, "type": "Feature", "id": null, "properties": {"name": "Walter Moberly Annex"}}, {"geometry": {"type": "Point", "coordinates": [-123.12504721, 49.2177625349888]}, "type": "Feature", "id": null, "properties": {"name": "Laurier Elem."}}, {"geometry": {"type": "Point", "coordinates": [-123.08434542, 49.2161092309888]}, "type": "Feature", "id": null, "properties": {"name": "Walter Moberly Elem."}}, {"geometry": {"type": "Point", "coordinates": [-123.122482, 49.2722379999887]}, "type": "Feature", "id": null, "properties": {"name": "Elsie Roy Elem."}}, {"geometry": {"type": "Point", "coordinates": [-123.10656921, 49.2315664869888]}, "type": "Feature", "id": null, "properties": {"name": "Van Horne Elem."}}, {"geometry": {"type": "Point", "coordinates": [-123.12685921, 49.2671031119887]}, "type": "Feature", "id": null, "properties": {"name": "False Creek Elem."}}, {"geometry": {"type": "Point", "coordinates": [-123.07246012, 49.2453207749888]}, "type": "Feature", "id": null, "properties": {"name": "Lord Selkirk Annex"}}, {"geometry": {"type": "Point", "coordinates": [-123.07817551, 49.2441566099888]}, "type": "Feature", "id": null, "properties": {"name": "McBride Elem."}}, {"geometry": {"type": "Point", "coordinates": [-123.084950188923, 49.2419442301333]}, "type": "Feature", "id": null, "properties": {"name": "McBride Annex"}}, {"geometry": {"type": "Point", "coordinates": [-123.08294436, 49.2548625609887]}, "type": "Feature", "id": null, "properties": {"name": "Dickens Elem."}}, {"geometry": {"type": "Point", "coordinates": [-123.08271031, 49.2502130619887]}, "type": "Feature", "id": null, "properties": {"name": "Dickens Annex"}}, {"geometry": {"type": "Point", "coordinates": [-123.091476792421, 49.2798115155865]}, "type": "Feature", "id": null, "properties": {"name": "Lord Strathcona Elem."}}, {"geometry": {"type": "Point", "coordinates": [-123.05058984, 49.2678863139887]}, "type": "Feature", "id": null, "properties": {"name": "Chief Maquinna Elem."}}, {"geometry": {"type": "Point", "coordinates": [-123.05026877, 49.2754163919887]}, "type": "Feature", "id": null, "properties": {"name": "Garibaldi Annex"}}, {"geometry": {"type": "Point", "coordinates": [-123.049806085058, 49.2753995232637]}, "type": "Feature", "id": null, "properties": {"name": "VLN - Elementary"}}, {"geometry": {"type": "Point", "coordinates": [-123.14937705, 49.2625189349887]}, "type": "Feature", "id": null, "properties": {"name": "Tennyson Elem."}}, {"geometry": {"type": "Point", "coordinates": [-123.10063141, 49.2412152219888]}, "type": "Feature", "id": null, "properties": {"name": "Brock Elem."}}, {"geometry": {"type": "Point", "coordinates": [-123.04440254, 49.2295787599888]}, "type": "Feature", "id": null, "properties": {"name": "Weir Elem."}}, {"geometry": {"type": "Point", "coordinates": [-123.16358941, 49.2626547729887]}, "type": "Feature", "id": null, "properties": {"name": "Kitsilano Sec."}}, {"geometry": {"type": "Point", "coordinates": [-123.07592057, 49.2619705499887]}, "type": "Feature", "id": null, "properties": {"name": "Queen Alexandra Elem."}}, {"geometry": {"type": "Point", "coordinates": [-123.14937705, 49.2625189349887]}, "type": "Feature", "id": null, "properties": {"name": "Tennyson Elem."}}, {"geometry": {"type": "Point", "coordinates": [-123.15953565, 49.2449830539888]}, "type": "Feature", "id": null, "properties": {"name": "Prince Of Wales Sec."}}, {"geometry": {"type": "Point", "coordinates": [-123.0743697, 49.2661931699887]}, "type": "Feature", "id": null, "properties": {"name": "Grandview Elem."}}]}